lat,lon,type,display_name
"-32.4220811","-63.7273531","residential","Venezuela, Hospital, Hernando, Municipio de Hernando, Pedanía Punta del Agua, Departamento Tercero Arriba, Córdoba, X5980, Argentina"
"10.4041837","-67.2855308","hospital","Hospital, Vía a Capachalito, Medicatura, Colonia Tovar, Parroquia Tovar, Municipio Tovar, Aragua, 1030, Venezuela"
"9.2435644","-70.2713653","pharmacy","Farmacia Hospital, T-7, Casco Central, Parroquia Boconó, Municipio Boconó, Trujillo, 3103, Venezuela"
"10.4840563","-66.9707518","bus_stop","Hospital, Avenida Principal de El Algodonal, Urbanización El Algodonal, Carapita, Caracas, Parroquia Antímano, Municipio Libertador, Distrito Capital, 1020, Venezuela"
"9.7409864","-63.1989422","bus_stop","Hospital, Avenida Bicentenario, Alberto Ravell, Maturín, Parroquia San Simón, Municipio Maturín, Monagas, 6201, Venezuela"
"10.2193618","-64.6369145","bus_stop","Hospital, Calle Juncal, Centro, Puerto La Cruz, Parroquia La Cruz, Municipio Sotillo, Anzoátegui, 6023, Venezuela"
